,City,Cloudiness,Country,Date,Humidity,Lat,Lng,Max Temp,Wind Speed
0,Puerto Ayora,20,EC,1567536176,65,-0.74,-90.35,26.0,9.3
1,Destin,1,US,1567536173,46,30.39,-86.5,35.0,4.6
2,Kampong Chhnang,100,KH,1567536383,80,12.25,104.67,25.97,5.77
3,Georgetown,100,SH,1567536383,80,-7.93,-14.42,22.97,7.82
4,Qaqortoq,75,GL,1567536317,76,60.72,-46.03,10.0,1.0
5,Busselton,17,AU,1567536383,55,-33.64,115.35,11.11,13.58
6,Nshamba,99,TZ,1567536383,52,-1.8,31.55,23.27,0.94
7,San Buenaventura,75,MX,1567536384,35,27.06,-101.55,32.0,4.1
8,Castro,0,CL,1567536384,61,-42.48,-73.76,10.0,4.1
9,Whitehorse,20,CA,1567536354,54,60.72,-135.06,14.0,4.1
10,Tasiilaq,5,GL,1567536384,55,65.61,-37.64,9.0,2.1
11,Arraial do Cabo,0,BR,1567536287,83,-22.97,-42.02,24.0,3.6
12,Pozo Colorado,93,PY,1567536384,22,-23.49,-58.8,26.67,2.69
13,Bronnoysund,75,NO,1567536384,81,65.46,12.2,10.0,6.7
14,Dahegam,75,IN,1567536384,89,23.17,72.82,29.0,3.1
15,Pisco,90,PE,1567536385,30,-13.71,-76.2,22.0,3.6
16,Rikitea,100,PF,1567536385,90,-23.12,-134.97,21.77,6.62
17,Cacheu,74,GW,1567536385,87,12.27,-16.16,27.07,5.13
18,Saint-Philippe,0,RE,1567536385,52,-21.36,55.77,20.0,2.1
19,Butaritari,63,KI,1567536385,63,3.07,172.79,28.77,1.24
20,Jamestown,90,SH,1567536385,76,-15.94,-5.72,19.27,8.63
21,Abong Mbang,83,CM,1567536386,89,3.98,13.18,22.27,1.32
22,Roma,2,AU,1567536386,33,-26.57,148.79,15.47,2.71
23,Hobart,0,AU,1567536386,93,-42.88,147.33,9.44,4.1
24,Victoria,40,SC,1567536314,83,-4.62,55.45,26.0,6.7
25,Kaitangata,100,NZ,1567536386,76,-46.28,169.85,6.11,0.89
26,Auchel,90,FR,1567536386,77,50.51,2.47,18.0,5.1
27,Bethel,90,US,1567536386,93,60.79,-161.76,11.0,6.2
28,Tezu,97,IN,1567536387,92,27.93,96.16,23.77,1.96
29,Umm Kaddadah,0,SD,1567536387,18,13.6,26.69,35.87,1.97
30,Thompson,75,CA,1567536387,51,55.74,-97.86,15.0,6.2
31,Klaksvik,75,FO,1567536387,71,62.23,-6.59,10.0,3.1
32,Avarua,63,CK,1567536177,64,-21.21,-159.78,21.0,3.6
33,Salalah,90,OM,1567536387,94,17.01,54.1,26.0,2.1
34,Yellowknife,90,CA,1567536387,76,62.45,-114.38,9.0,6.2
35,Ullapool,100,GB,1567536388,91,57.9,-5.16,15.56,2.24
36,Itupiranga,75,BR,1567536388,44,-5.13,-49.33,36.0,4.1
37,Cartagena,100,CO,1567536388,63,9.69,-73.26,31.87,1.94
38,Ushuaia,75,AR,1567536388,64,-54.81,-68.31,2.0,8.2
39,Frankfort,0,ZA,1567536388,14,-27.28,28.49,11.07,3.13
40,Pangnirtung,90,CA,1567536250,93,66.15,-65.72,7.0,2.1
41,Ostrzeszow,27,PL,1567536388,7,51.43,17.93,18.89,1.59
42,Vaini,90,TO,1567536389,83,-21.2,-175.2,23.0,3.6
43,Atuona,1,PF,1567536389,76,-9.8,-139.03,26.27,6.64
44,Talaya,20,RU,1567536389,93,55.79,84.89,9.0,2.0
45,Banda Aceh,99,ID,1567536101,82,5.56,95.32,27.87,8.87
46,Haimen,79,CN,1567536389,94,31.87,121.18,25.56,1.28
47,Nanortalik,100,GL,1567536263,80,60.14,-45.24,8.97,3.63
48,Erdenet,100,MN,1567536390,93,49.03,104.04,12.67,1.17
49,Cape Town,40,ZA,1567536224,76,-33.93,18.42,15.0,6.2
50,Punta Arenas,40,CL,1567536390,45,-53.16,-70.91,6.0,7.2
51,Flinders,0,AU,1567536390,87,-34.58,150.85,10.0,1.5
52,Vila Franca do Campo,75,PT,1567536390,60,37.72,-25.43,22.0,5.7
53,Upernavik,0,GL,1567536390,52,72.79,-56.15,4.37,2.65
54,Tazmalt,40,DZ,1567536390,65,36.39,4.4,26.0,3.1
55,Sitka,0,US,1567536391,34,37.17,-99.65,35.56,4.47
56,Carnarvon,0,AU,1567536391,82,-24.87,113.63,17.0,7.7
57,Xining,31,CN,1567536288,85,36.62,101.77,9.17,0.78
58,Bluff,100,NZ,1567536391,95,-46.6,168.33,3.89,1.64
59,Russell,93,NZ,1567536237,96,-35.26,174.12,13.33,1.17
60,Sur,84,OM,1567536253,50,22.57,59.53,29.47,3.52
61,Anadyr,40,RU,1567536391,86,64.73,177.51,5.0,4.0
62,Anchorage,90,US,1567536307,93,61.22,-149.89,13.33,2.04
63,Samarai,100,PG,1567536391,84,-10.62,150.67,20.77,3.38
64,Leningradskiy,97,RU,1567536392,87,69.38,178.42,1.37,2.78
65,Constitucion,40,MX,1567536237,59,23.99,-104.67,21.67,7.08
66,Lebu,0,CL,1567536392,59,-37.62,-73.65,9.87,10.6
67,Marquard,1,ZA,1567536392,51,-28.66,27.43,7.87,0.97
68,Karatau,100,KZ,1567536392,29,43.18,70.46,14.17,1.83
69,Guerrero Negro,0,MX,1567536392,80,27.97,-114.04,22.07,3.26
70,Batemans Bay,0,AU,1567536393,92,-35.71,150.18,8.33,1.79
71,Shahr-e Babak,0,IR,1567536393,14,30.12,55.12,23.57,2.65
72,Kavaratti,100,IN,1567536393,80,10.57,72.64,27.87,8.0
73,Shakawe,31,BW,1567536393,22,-18.36,21.84,22.37,1.94
74,Luderitz,0,NA,1567536393,93,-26.65,15.16,12.0,6.2
75,Talnakh,75,RU,1567536394,93,69.49,88.39,8.0,2.0
76,Korla,15,CN,1567536311,85,41.76,86.15,20.56,1.79
77,Daru,100,PG,1567536394,79,-9.07,143.21,22.47,3.4
78,Tapejara,46,BR,1567536394,56,-23.73,-52.87,24.37,4.56
79,Magistralnyy,0,RU,1567536273,91,56.17,107.45,6.97,0.65
80,Nikolskoye,75,RU,1567536394,82,59.7,30.79,14.44,2.0
81,Saryg-Sep,0,RU,1567536394,80,51.49,95.55,9.97,1.35
82,Cusuna,1,HN,1567536394,79,15.85,-85.23,27.77,5.13
83,Ilulissat,20,GL,1567536395,43,69.22,-51.1,11.0,3.6
84,Hilo,1,US,1567536395,57,19.71,-155.08,27.0,2.6
85,Kahului,20,US,1567536092,57,20.89,-156.47,28.0,6.48
86,Urucara,44,BR,1567536395,34,-2.54,-57.76,36.37,1.76
87,Gallup,1,US,1567536395,19,35.53,-108.74,30.56,4.1
88,Qaanaaq,33,GL,1567536395,48,77.48,-69.36,1.77,3.55
89,Owando,83,CG,1567536396,73,-0.49,15.91,26.27,0.88
90,Sihora,62,IN,1567536396,86,23.49,80.11,26.07,1.15
91,Lagoa,0,PT,1567536396,69,37.14,-8.45,27.0,2.6
92,Hithadhoo,56,MV,1567536396,75,-0.6,73.08,28.47,5.37
93,Kiama,0,AU,1567536257,87,-34.67,150.86,12.22,1.5
94,Staryy Nadym,93,RU,1567536396,82,65.61,72.68,8.17,1.93
95,Jinchang,0,CN,1567536396,41,38.52,102.19,19.07,1.95
96,Iqaluit,90,CA,1567536308,87,63.75,-68.52,7.0,9.3
97,Torbay,90,CA,1567536222,72,47.66,-52.73,19.44,10.8
98,Verkhnevilyuysk,100,RU,1567536397,98,63.45,120.31,6.77,1.42
99,Clyde River,75,CA,1567536397,100,70.47,-68.59,6.0,5.1
100,Songjianghe,0,CN,1567536397,96,42.18,127.48,14.37,1.25
101,Hereford,1,US,1567536397,23,34.82,-102.4,34.0,6.7
102,Geraldton,90,CA,1567536397,58,49.72,-86.95,13.0,5.1
103,Mochudi,0,BW,1567536397,21,-24.38,26.15,21.0,2.6
104,Kavieng,100,PG,1567536398,75,-2.57,150.8,28.27,3.87
105,Bredasdorp,0,ZA,1567536253,81,-34.53,20.04,13.33,3.6
106,Kupino,86,RU,1567536398,94,54.36,77.31,8.17,3.75
107,Chuy,30,UY,1567536398,51,-33.69,-53.46,10.77,4.45
108,Puerto Colombia,40,CO,1567536242,70,10.99,-74.96,32.0,3.6
109,Lerwick,2,GB,1567536326,81,60.15,-1.15,12.0,5.7
110,Mahebourg,75,MU,1567536399,73,-20.41,57.7,23.0,3.1
111,Hermanus,15,ZA,1567536399,88,-34.42,19.24,13.89,2.51
112,Diapaga,9,BF,1567536399,73,12.07,1.79,27.47,2.24
113,Isangel,20,VU,1567536399,88,-19.55,169.27,19.0,5.14
114,Longyearbyen,90,SJ,1567536399,97,78.22,15.64,0.0,3.6
115,Taguatinga,40,BR,1567536399,21,-15.83,-48.06,33.33,2.6
116,Maloy,75,NO,1567536282,71,61.94,5.11,11.0,2.6
117,Barrow,1,US,1567536400,74,39.51,-90.4,32.22,6.2
118,Albany,75,AU,1567536405,93,-35.02,117.88,8.0,7.7
119,Eirunepe,85,BR,1567536405,34,-6.66,-69.87,36.67,0.96
120,Kapaa,40,US,1567536406,74,22.08,-159.32,28.0,2.6
121,Srednekolymsk,15,RU,1567536406,51,67.46,153.71,5.37,3.55
122,Tigzirt,0,DZ,1567536407,50,36.57,4.2,23.97,2.83
123,East London,0,ZA,1567536296,87,-33.02,27.91,13.0,1.5
124,Lamu,20,KE,1567536310,74,-2.27,40.9,26.0,8.03
125,Pinyug,26,RU,1567536407,80,60.25,47.79,9.77,0.97
126,Prince Rupert,75,CA,1567536407,93,54.32,-130.32,14.0,2.1
127,Turukhansk,98,RU,1567536407,80,65.8,87.96,7.07,1.82
128,Tarakan,90,ID,1567536394,81,3.3,117.63,26.67,1.15
129,Kutum,54,SD,1567536408,31,14.2,24.66,29.57,3.03
130,North Platte,1,US,1567536408,42,41.12,-100.77,28.33,8.7
131,Houma,40,US,1567536272,62,29.6,-90.72,35.0,4.1
132,Broome,6,AU,1567536303,93,-17.97,122.23,17.0,5.16
133,Minab,10,IR,1567536408,70,27.15,57.07,33.0,3.1
134,Mocuba,1,MZ,1567536408,78,-16.84,36.99,20.47,3.18
135,Ola,1,RU,1567536408,91,59.58,151.3,9.17,1.78
136,Esperance,90,AU,1567536408,76,-33.86,121.89,10.0,5.7
137,Casablanca,40,MA,1567536269,78,33.6,-7.62,27.0,3.6
138,Troitsko-Pechorsk,83,RU,1567536409,77,62.71,56.19,8.87,1.23
139,Mount Gambier,90,AU,1567536409,100,-37.83,140.78,7.0,4.6
140,Tautira,40,PF,1567536409,69,-17.73,-149.15,27.0,1.5
141,Dinguiraye,78,GN,1567536409,90,11.29,-10.71,24.97,1.41
142,Katsuura,75,JP,1567536409,94,33.93,134.5,25.0,0.5
143,Budogoshch,100,RU,1567536410,91,59.29,32.45,13.27,1.68
144,Nianzishan,86,CN,1567536410,87,47.51,122.88,16.97,0.82
145,Gamba,41,GA,1567536410,83,-2.72,10.02,23.57,3.16
146,Port Alfred,0,ZA,1567536410,83,-33.59,26.89,17.78,1.34
147,Namatanai,90,PG,1567536410,86,-3.66,152.44,25.47,4.73
148,Iranshahr,0,IR,1567536410,9,27.21,60.69,37.0,3.1
149,Yenagoa,90,NG,1567536410,90,4.92,6.26,24.77,2.34
150,Tuatapere,100,NZ,1567536411,95,-46.13,167.69,3.89,2.19
151,Hastings,100,NZ,1567536411,99,-39.64,176.84,10.97,2.67
152,Ancud,0,CL,1567536411,61,-41.87,-73.83,10.0,4.1
153,Kandi,50,BJ,1567536411,80,11.13,2.93,26.37,1.57
154,Sora,40,IT,1567536411,94,41.72,13.61,26.11,1.0
155,Puerto Penasco,7,MX,1567536411,76,31.32,-113.53,32.22,4.47
156,Egvekinot,100,RU,1567536412,94,66.32,-179.17,0.97,9.45
157,Otane,100,NZ,1567536412,94,-39.89,176.62,11.11,3.13
158,Diego de Almagro,0,CL,1567536412,39,-26.39,-70.05,19.27,4.11
159,Tuktoyaktuk,20,CA,1567536412,93,69.44,-133.03,4.0,6.7
160,Bodden Town,20,KY,1567536412,66,19.28,-81.25,32.22,5.1
161,Svetlaya,0,RU,1567536233,80,46.54,138.33,10.57,2.93
162,Bambanglipuro,95,ID,1567536241,85,-7.95,110.28,22.27,2.34
163,Ilinskiy,20,RU,1567536413,72,55.62,38.12,20.56,3.0
164,Havelock,40,US,1567536380,55,34.88,-76.9,31.67,4.1
165,Carbonia,20,IT,1567536163,78,39.17,8.53,26.0,3.6
166,Weiser,1,US,1567536413,30,44.25,-116.97,31.11,3.57
167,Hasaki,75,JP,1567536314,94,35.73,140.83,23.0,3.6
168,Pevek,0,RU,1567536413,83,69.7,170.27,3.17,2.8
169,Lensk,26,RU,1567536413,79,60.71,114.91,8.67,3.26
170,Kargopol,51,RU,1567536414,92,61.51,38.95,16.17,2.48
171,San Javier,20,BO,1567536414,40,-16.27,-62.5,31.0,4.1
172,Macas,20,EC,1567536414,61,-2.3,-78.12,26.0,4.1
173,Labuhan,12,ID,1567536414,55,-2.54,115.51,20.27,1.16
174,Cidreira,66,BR,1567536275,64,-30.17,-50.22,14.37,3.95
175,Ribeira Grande,40,PT,1567536414,69,38.52,-28.7,23.0,8.2
176,Bandarbeyla,0,SO,1567536257,64,9.49,50.81,25.77,10.74
177,Mar del Plata,11,AR,1567536203,41,-46.43,-67.52,3.97,11.28
178,Paonta Sahib,39,IN,1567536415,83,30.44,77.62,25.57,1.38
179,Codajas,79,BR,1567536415,32,-3.84,-62.06,37.27,1.58
180,Comodoro Rivadavia,75,AR,1567536415,75,-45.87,-67.48,7.0,8.2
181,Xingcheng,25,CN,1567536415,87,40.62,120.71,19.07,0.42
182,Natal,20,BR,1567536415,58,-5.81,-35.21,29.0,7.7
183,Kumeny,21,RU,1567536416,84,58.11,49.92,10.77,1.94
184,Vila Velha,20,BR,1567536416,62,-3.71,-38.6,30.0,8.7
185,Lompoc,1,US,1567536416,64,34.64,-120.46,32.78,5.7
186,Uyskoye,70,RU,1567536416,95,54.37,60.01,6.77,2.43
187,Krasnokamensk,90,RU,1567536416,90,50.1,118.04,15.37,1.26
188,Lorengau,71,PG,1567536297,84,-2.02,147.27,26.27,3.9
189,Poya,63,NC,1567536416,65,-21.35,165.16,20.57,6.63
190,Dabola,30,GN,1567536417,91,10.74,-11.11,24.17,1.08
191,Blagoevgrad,19,BG,1567536417,50,42.01,23.09,13.89,0.45
192,Puerto Rico,3,CO,1567536417,49,2.94,-73.21,33.17,1.42
193,Khatanga,90,RU,1567536417,89,71.98,102.47,6.07,3.84
194,Tiksi,17,RU,1567536417,93,71.64,128.87,1.97,1.11
195,Port Hardy,75,CA,1567536418,93,50.7,-127.42,14.0,1.5
196,Gazli,62,UZ,1567536418,19,40.13,63.45,22.27,1.8
197,Sao Filipe,100,CV,1567536418,83,14.9,-24.5,27.27,4.45
198,Maneadero,5,MX,1567536150,85,31.72,-116.57,21.97,4.4
199,Haifa,0,IL,1567536418,77,32.82,35.0,24.44,0.45
200,Port Elizabeth,75,ZA,1567536418,77,-33.92,25.57,16.0,4.6
201,Ketchikan,90,US,1567536419,93,55.34,-131.65,16.0,3.07
202,Okhotsk,8,RU,1567536419,94,59.36,143.24,6.57,1.16
203,Havoysund,0,NO,1567536419,71,71.0,24.66,11.0,5.7
204,Faanui,21,PF,1567536419,82,-16.48,-151.75,25.67,6.74
205,Cabo San Lucas,20,MX,1567536419,74,22.89,-109.91,32.78,4.1
206,Brae,2,GB,1567536294,81,60.4,-1.35,12.0,5.7
207,Baykit,68,RU,1567536294,94,61.68,96.39,3.37,0.64
208,Dubbo,0,AU,1567536229,49,-32.25,148.6,8.0,2.1
209,Sioux Lookout,90,CA,1567536128,76,50.1,-91.92,11.0,2.1
210,Coihaique,20,CL,1567536420,42,-45.58,-72.07,12.0,2.6
211,Abnub,0,EG,1567536420,23,27.27,31.15,30.17,4.57
212,Dzhebariki-Khaya,100,RU,1567536420,93,62.22,135.8,11.17,4.28
213,Dikson,98,RU,1567536420,93,73.51,80.55,4.57,2.65
214,Lamesa,90,US,1567536420,31,32.74,-101.95,34.44,2.6
215,Nouakchott,20,MR,1567536276,70,18.08,-15.98,31.0,8.2
216,Fecamp,0,FR,1567536421,63,49.76,0.37,18.33,3.1
217,Staryy Oskol,3,RU,1567536421,67,51.3,37.84,19.27,3.9
218,Carutapera,55,BR,1567536421,64,-1.2,-46.02,29.87,5.67
219,Cockburn Town,0,TC,1567536421,76,21.46,-71.14,28.87,5.95
220,Ahipara,70,NZ,1567536421,100,-35.17,173.16,13.33,5.84
221,Rathkeale,75,IE,1567536421,93,52.52,-8.94,16.67,7.7
222,Namioka,40,JP,1567536421,82,40.71,140.59,18.0,2.1
223,Carnarvon,0,ZA,1567536422,9,-30.97,22.13,14.77,2.3
224,General Pico,0,AR,1567536422,14,-35.66,-63.75,13.87,4.05
225,Hofn,25,IS,1567536422,76,64.25,-15.21,3.07,3.3
226,Maputo,0,MZ,1567536422,83,-25.97,32.57,21.0,6.2
227,San Patricio,5,MX,1567536124,66,19.22,-104.7,33.0,3.1
228,New Norfolk,0,AU,1567536423,93,-42.78,147.06,9.44,4.1
229,San Benedetto del Tronto,75,IT,1567536423,64,42.95,13.88,23.33,1.5
230,Sao Jose da Coroa Grande,29,BR,1567536423,72,-8.9,-35.15,26.17,4.37
231,Yulara,0,AU,1567536269,15,-25.24,130.99,8.0,1.5
232,Vagur,55,FO,1567536423,79,61.47,-6.81,9.97,8.61
233,Askiz,96,RU,1567536423,77,53.13,90.53,9.87,1.94
234,Dalbandin,0,PK,1567536423,7,28.9,64.41,30.57,7.63
235,Shimoda,69,JP,1567536288,93,34.7,138.93,24.44,0.5
236,Xuddur,35,SO,1567536424,44,4.12,43.89,27.97,6.93
237,Palauig,100,PH,1567536424,81,15.44,119.9,28.17,8.0
238,Sembe,67,CG,1567536424,81,1.65,14.58,23.37,0.68
239,Santiago del Estero,78,AR,1567536424,33,-27.8,-64.26,14.47,3.34
240,Lebedinyy,93,RU,1567536424,95,58.52,125.52,6.67,1.07
241,Lardos,20,GR,1567536187,73,36.09,28.02,25.0,5.7
242,Brigantine,1,US,1567536255,48,39.41,-74.36,29.44,4.6
243,Uyemskiy,20,RU,1567536425,77,64.47,40.85,19.0,2.0
244,Porbandar,100,IN,1567536425,86,21.64,69.61,28.37,8.37
245,Kruisfontein,0,ZA,1567536425,89,-34.0,24.73,12.57,5.19
246,Christchurch,100,NZ,1567536272,93,-43.53,172.64,10.56,5.1
247,Gumdag,13,TM,1567536425,52,39.2,54.59,19.57,1.9
248,Souillac,75,MU,1567536425,73,-20.52,57.52,23.0,3.1
249,Nabire,100,ID,1567536426,99,-3.36,135.5,19.97,0.95
250,Hamilton,75,BM,1567536308,79,32.3,-64.78,30.0,7.7
251,Senador Guiomard,40,BR,1567536242,83,-10.15,-67.74,28.0,3.6
252,Zhuanghe,39,CN,1567536426,34,39.7,122.97,25.56,1.79
253,Saint George,75,BM,1567536426,79,32.38,-64.68,30.0,7.7
254,Jizan,20,SA,1567536426,49,16.89,42.56,32.0,2.77
255,Saldanha,0,ZA,1567536023,84,-33.01,17.94,15.37,10.44
256,Dawson Creek,1,CA,1567536426,68,55.76,-120.23,19.0,1.83
257,Murgud,100,IN,1567536426,98,16.43,74.26,20.87,3.72
258,Pangody,95,RU,1567536427,87,65.85,74.49,7.67,3.23
259,Seydi,42,TM,1567536427,31,39.48,62.91,21.57,3.41
260,Chokurdakh,27,RU,1567536427,86,70.62,147.9,2.67,3.98
261,Bubaque,23,GW,1567536427,82,11.28,-15.83,28.47,8.07
262,Arman,48,RU,1567536427,91,59.7,150.17,5.37,0.94
263,Port Blair,100,IN,1567536428,82,11.67,92.75,27.87,10.28
264,Grindavik,0,IS,1567536428,62,63.84,-22.43,12.0,6.7
265,Sakaiminato,75,JP,1567536428,100,35.55,133.23,24.0,0.5
266,Acapulco,75,MX,1567536428,70,16.86,-99.88,31.0,2.1
267,Bonthe,100,SL,1567536428,86,7.53,-12.5,25.97,5.59
268,Miranda de Ebro,0,ES,1567536428,49,42.69,-2.95,23.0,5.1
269,College,90,US,1567536246,81,64.86,-147.8,12.22,0.81
270,Sao Mateus,8,BR,1567536435,48,-18.72,-39.86,28.97,4.26
271,Port Lincoln,66,AU,1567536435,87,-34.72,135.86,14.37,2.21
272,Roald,75,NO,1567536435,71,62.58,6.12,11.0,6.2
273,Saskylakh,74,RU,1567536435,73,71.97,114.09,5.77,2.99
274,Haines Junction,94,CA,1567536435,82,60.75,-137.51,6.37,2.01
275,Bathsheba,40,BB,1567536435,66,13.22,-59.52,31.0,7.2
276,Provideniya,100,RU,1567536436,95,64.42,-173.23,7.67,2.89
277,Aracruz,0,BR,1567536436,58,-19.82,-40.27,29.0,7.7
278,Killybegs,90,IE,1567536436,87,54.63,-8.45,15.0,7.2
279,Mawlaik,100,MM,1567536436,94,23.63,94.42,22.27,1.1
280,Soyo,75,AO,1567536278,83,-6.13,12.37,24.0,3.6
281,Severo-Kurilsk,100,RU,1567536436,97,50.68,156.12,9.97,5.29
282,Lufilufi,64,WS,1567536436,94,-13.87,-171.6,23.89,1.34
283,Aklavik,75,CA,1567536437,81,68.22,-135.01,9.0,3.6
284,Bullhead City,20,US,1567536437,28,35.15,-114.57,41.11,1.5
285,Itaperucu,75,BR,1567536437,72,-25.22,-49.35,23.33,3.1
286,Guisa,75,CU,1567536437,59,20.25,-76.54,32.0,1.5
287,Tual,47,ID,1567536437,81,-5.67,132.75,24.07,7.3
288,Verkhnyaya Inta,60,RU,1567536438,84,65.99,60.32,7.97,2.14
289,Semey,100,KZ,1567536438,41,50.41,80.25,11.77,2.57
290,Caxito,77,AO,1567536438,81,-8.58,13.66,22.47,3.5
291,Cockburn Town,100,BS,1567536298,82,24.03,-74.52,28.67,7.3
292,Aykhal,90,RU,1567536438,86,65.95,111.51,4.0,2.0
293,Gorontalo,69,ID,1567536267,89,0.54,123.06,19.47,1.29
294,Kaeo,67,NZ,1567536438,100,-35.1,173.78,13.33,2.37
295,Beringovskiy,100,RU,1567536438,95,63.05,179.32,4.97,2.4
296,Phetchaburi,100,TH,1567536439,96,13.1,99.94,22.07,1.56
297,Ponta do Sol,40,PT,1567536439,56,32.67,-17.1,23.0,4.1
298,Lavrentiya,100,RU,1567536310,97,65.58,-170.99,7.57,3.71
299,Nador,75,MA,1567536245,83,35.17,-2.93,26.0,2.1
300,Geraldton,40,AU,1567536439,71,-28.77,114.6,13.0,3.1
301,Carauari,93,BR,1567536439,32,-4.88,-66.9,37.87,1.24
302,Sungai Padi,75,TH,1567536439,94,6.09,101.88,24.0,1.25
303,Narsaq,75,GL,1567536276,76,60.91,-46.05,10.0,1.0
304,Ambon,40,ID,1567536440,94,-3.7,128.18,23.0,4.1
305,Alto Araguaia,63,BR,1567536440,24,-17.32,-53.22,33.77,3.87
306,Fukue,40,JP,1567536289,88,35.03,136.69,26.11,4.1
307,Cayenne,0,GF,1567536440,59,4.94,-52.33,32.0,4.6
308,Grand Gaube,75,MU,1567536440,73,-20.01,57.66,23.0,3.1
309,Yankton,1,US,1567536440,60,42.87,-97.4,24.44,8.2
310,Najran,40,SA,1567536441,16,17.54,44.22,32.0,1.0
311,Ixtapa,75,MX,1567536441,62,20.71,-105.21,32.22,3.1
312,Mayumba,87,GA,1567536441,87,-3.44,10.65,23.17,4.46
313,Camacha,20,PT,1567536441,57,33.08,-16.33,24.0,3.6
314,Alice Springs,33,AU,1567536441,13,-23.7,133.88,11.0,2.6
315,Itaituba,20,BR,1567536441,39,-4.26,-55.99,37.0,3.6
316,Oranjemund,0,NA,1567536441,82,-28.55,16.43,14.27,6.36
317,Agadez,0,NE,1567536442,74,16.97,7.99,28.0,1.0
318,Margate,0,ZA,1567536259,39,-30.86,30.37,18.27,2.28
319,San Juan,0,AR,1567536442,28,-31.54,-68.53,5.07,3.96
320,Fortuna,75,US,1567536442,72,40.6,-124.16,25.0,4.6
321,Itarema,77,BR,1567536442,49,-2.92,-39.92,30.97,8.19
322,Black River,40,JM,1567536442,62,18.03,-77.85,32.0,6.2
323,Henties Bay,0,NA,1567536443,94,-22.12,14.28,12.22,1.34
324,Puerto Escondido,40,MX,1567536443,70,15.86,-97.07,29.0,3.1
325,Port Moresby,40,PG,1567536443,88,-9.47,147.16,23.0,8.2
326,Villa Alemana,0,CL,1567536443,48,-33.04,-71.37,23.89,5.7
327,Caravelas,0,BR,1567536251,67,-17.73,-39.27,25.97,6.34
328,Trinidad,20,UY,1567536443,56,-33.52,-56.9,12.0,8.2
329,Rorvik,75,NO,1567536443,87,64.86,11.24,11.0,3.1
330,Shihezi,0,CN,1567536443,26,44.3,86.03,22.77,3.13
331,Touros,40,BR,1567536242,61,-5.2,-35.46,28.0,9.3
332,Sorland,75,NO,1567536444,81,67.67,12.69,10.0,10.8
333,Vardo,0,NO,1567536444,87,70.37,31.11,9.0,6.2
334,Havre-Saint-Pierre,1,CA,1567536444,67,50.23,-63.6,14.0,8.2
335,Mandera,56,KE,1567536444,44,3.94,41.87,29.07,4.07
336,Rio Verde de Mato Grosso,55,BR,1567536444,27,-18.92,-54.84,34.77,3.88
337,Northam,40,AU,1567536448,87,-31.65,116.67,11.0,2.6
338,Kalmunai,100,LK,1567536448,69,7.42,81.82,26.07,1.75
339,Mahajanga,20,MG,1567536448,83,-15.72,46.32,25.0,3.1
340,Morrope,0,PE,1567536448,60,-6.54,-80.02,22.0,6.7
341,Rio de Janeiro,75,BR,1567536158,83,-22.91,-43.21,24.0,7.7
342,Obihiro,10,JP,1567536448,76,42.92,143.2,10.77,1.71
343,De Aar,0,ZA,1567536448,8,-30.65,24.01,15.27,3.15
344,Perehonivka,0,UA,1567536449,68,49.98,30.49,22.0,8.0
345,Bilibino,0,RU,1567536292,85,68.06,166.44,-3.04,0.71
346,Ponta do Sol,75,CV,1567536449,79,17.2,-25.09,29.0,3.1
347,Epe,89,NG,1567536449,84,6.59,3.98,25.77,5.84
348,Mirnyy,57,RU,1567536449,91,56.57,36.46,16.47,3.54
349,Tanout,34,NE,1567536449,18,14.97,8.88,37.77,3.16
350,Kloulklubed,90,PW,1567536449,94,7.04,134.26,24.0,5.1
351,Vao,0,NC,1567536450,72,-22.67,167.48,20.77,13.03
352,Kenai,40,US,1567536450,76,60.55,-151.26,15.0,4.6
353,Aktash,15,RU,1567536274,75,50.31,87.6,2.97,2.01
354,Manakara,0,MG,1567536450,91,-22.14,48.01,18.67,1.06
355,Dingle,75,IE,1567536303,93,52.14,-10.27,16.0,5.7
356,Rosario Oeste,1,BR,1567536450,12,-14.84,-56.43,43.37,0.48
357,Preston,1,US,1567536450,20,42.1,-111.88,31.67,2.66
358,Kodiak,1,US,1567536277,62,39.95,-94.76,31.11,5.7
359,Diffa,29,NE,1567536451,25,13.32,12.61,35.67,3.69
360,Kununurra,99,AU,1567536451,77,-15.77,128.74,17.0,3.1
361,Verkhnetulomskiy,0,RU,1567536451,71,68.61,31.8,12.0,2.0
362,Mariroc,100,PH,1567536451,87,13.34,123.71,23.87,2.09
363,Cherskiy,0,RU,1567536451,67,68.75,161.3,2.57,1.4
364,Nyurba,100,RU,1567536452,99,63.29,118.35,7.87,0.7
365,Mabaruma,35,GY,1567536452,79,8.2,-59.78,28.97,2.33
366,Nikolayevka,0,RU,1567536452,52,46.73,38.57,25.17,4.01
367,Cantapoy,73,PH,1567536452,78,9.49,125.44,27.87,3.8
368,Reggio di Calabria,40,IT,1567536452,83,38.11,15.66,24.0,3.1
369,Chifeng,44,CN,1567536452,65,42.27,118.96,15.77,0.73
370,Hongjiang,0,CN,1567536453,91,27.21,109.83,19.17,1.32
371,Redmond,20,US,1567536338,56,47.67,-122.12,25.0,0.8
372,Harsin,0,IR,1567536453,14,34.27,47.59,27.0,5.1
373,Petropavlovsk-Kamchatskiy,75,RU,1567536453,100,53.05,158.65,11.0,1.0
374,Xai-Xai,0,MZ,1567536453,70,-25.04,33.64,19.07,4.06
375,Rognedino,13,RU,1567536453,86,53.8,33.56,17.97,2.42
376,Bonavista,100,CA,1567536453,84,48.65,-53.11,15.56,2.24
377,Byron Bay,0,AU,1567536232,100,-28.65,153.62,12.22,1.11
378,Gorele,20,TR,1567536454,78,41.03,39.0,23.0,2.6
379,Urucui,2,BR,1567536454,20,-7.23,-44.56,38.87,3.79
380,Domoni,64,KM,1567536454,76,-12.26,44.53,25.37,3.24
381,Trincomalee,100,LK,1567536454,70,8.58,81.23,26.87,4.99
382,Zaraza,1,VE,1567536454,62,9.35,-65.33,31.47,1.58
383,Mogadishu,40,SO,1567536416,74,2.04,45.34,26.0,8.2
384,Casino,0,AU,1567536169,81,-28.86,153.05,12.22,3.6
385,Bardiyah,0,LY,1567536455,83,31.76,25.09,25.87,5.09
386,Chiang Khong,20,TH,1567536455,100,20.26,100.4,24.0,0.93
387,Bandiagara,40,ML,1567536455,88,14.35,-3.61,27.0,3.66
388,Rio Gallegos,75,AR,1567536312,41,-51.62,-69.22,5.0,4.1
389,Mitsamiouli,34,KM,1567536282,79,-11.38,43.28,25.67,8.35
390,Madison Heights,1,US,1567536455,69,42.49,-83.11,25.56,5.1
391,Lubumbashi,1,CD,1567536455,38,-11.66,27.48,22.27,2.48
392,Dicabisagan,100,PH,1567536455,86,17.08,122.42,24.07,1.31
393,Kalabo,14,ZM,1567536456,22,-15.0,22.67,25.57,3.0
394,Berdigestyakh,100,RU,1567536456,98,62.1,126.7,7.37,1.18
395,Saint George,1,US,1567536456,59,38.54,-90.31,32.78,3.1
396,Taltal,1,CL,1567536456,59,-25.41,-70.49,15.27,2.73
397,Mende,0,FR,1567536456,48,44.52,3.5,17.0,1.0
398,Tuy Hoa,99,VN,1567536456,72,13.08,109.3,24.17,3.32
399,Bria,100,CF,1567536457,94,6.54,21.99,22.37,0.76
400,Kambove,0,CD,1567536457,38,-10.88,26.6,21.37,2.79
401,Meulaboh,100,ID,1567536105,81,4.14,96.13,27.17,5.02
402,Buritizeiro,0,BR,1567536457,16,-17.37,-44.96,36.57,3.67
403,Birjand,0,IR,1567536457,15,32.86,59.22,25.0,4.1
404,Richards Bay,0,ZA,1567536457,79,-28.77,32.06,22.07,7.35
405,Mareeba,40,AU,1567536457,81,-16.99,145.42,12.0,1.0
406,Miraflores,10,CO,1567536457,58,5.2,-73.14,20.17,3.57
407,Aguilas,0,ES,1567536458,58,37.41,-1.58,28.0,3.6
408,Kudahuvadhoo,84,MV,1567536458,74,2.67,72.89,28.47,3.91
409,Adrar,90,DZ,1567536458,33,27.87,-0.29,32.0,21.1
410,Ylivieska,38,FI,1567536458,82,64.07,24.53,14.44,0.84
411,Am Timan,62,TD,1567536458,89,11.04,20.28,24.67,1.77
412,Matay,0,EG,1567536459,29,28.42,30.79,30.07,5.13
413,Komsomolskiy,100,RU,1567536230,79,67.55,63.78,11.17,3.23
414,Bessemer,1,US,1567536277,43,33.4,-86.95,36.11,2.6
415,Yar-Sale,100,RU,1567536459,76,66.83,70.83,10.17,2.07
416,Arona,0,ES,1567536459,68,28.1,-16.68,25.0,7.2
417,Duki,67,PK,1567536459,45,30.15,68.58,29.47,3.58
418,Longonjo,74,AO,1567536459,42,-12.91,15.25,20.07,2.65
419,Back Mountain,1,US,1567536459,50,41.34,-76.0,27.78,2.69
420,Santa Marta,75,CO,1567536185,66,11.24,-74.21,32.0,4.1
421,Taywarah,0,AF,1567536460,23,33.35,64.42,14.27,3.26
422,Rio Grande,40,BR,1567536124,45,-32.03,-52.1,14.0,3.6
423,Ozernovskiy,98,RU,1567536460,90,51.5,156.52,10.07,1.28
424,Half Moon Bay,5,US,1567536460,72,37.46,-122.43,25.56,3.1
425,Amahai,97,ID,1567536460,86,-3.31,129.0,23.87,3.56
426,Dunmore East,75,IE,1567536460,93,52.15,-6.99,17.78,5.1
427,Marrakesh,40,MA,1567536274,19,31.63,-7.99,35.0,4.6
428,Bilma,0,NE,1567536461,12,18.69,12.92,38.87,3.66
429,Entre Rios,17,BO,1567536461,40,-21.53,-64.17,20.0,3.1
430,Manhattan,1,US,1567536461,52,39.18,-96.57,33.33,3.6
431,Mizan Teferi,100,ET,1567536461,95,6.99,35.58,18.07,1.39
432,Kandrian,100,PG,1567536254,93,-6.21,149.55,23.07,4.01
433,Parana,0,AR,1567536461,21,-31.73,-60.52,16.11,2.17
434,Santa Fe,40,CU,1567536462,70,23.13,-82.26,31.0,6.2
435,Udachnyy,90,RU,1567536462,86,66.42,112.4,4.0,2.0
436,Jutai,82,BR,1567536462,58,-1.71,-47.89,31.67,2.23
437,Eisiskes,75,LT,1567536462,93,54.17,25.0,13.33,2.6
438,Saint-Pierre,75,PM,1567536462,93,46.77,-56.17,17.0,10.8
439,Dabat,29,ET,1567536463,84,12.98,37.77,20.47,1.15
440,La Asuncion,40,VE,1567536251,43,11.03,-63.86,33.0,5.55
441,Sechura,18,PE,1567536384,93,-5.56,-80.82,15.87,6.77
442,Ugoofaaru,100,MV,1567536463,79,5.67,73.0,28.07,4.68
443,Tevriz,96,RU,1567536463,93,57.51,72.4,8.57,1.65
444,Otofuke,10,JP,1567536463,76,43.02,143.2,10.77,1.71
445,Aleppo,0,SY,1567536463,84,36.2,37.17,21.97,4.37
446,Hearst,100,CA,1567536463,42,49.69,-83.67,16.17,3.54
447,Harper,38,LR,1567536464,86,4.38,-7.71,25.17,5.93
448,Ternate,95,ID,1567536464,78,0.8,127.4,25.97,4.56
449,Anloga,40,GH,1567536464,88,5.79,0.9,26.0,4.1
450,Norman Wells,75,CA,1567536464,87,65.28,-126.83,11.0,4.6
451,Vyritsa,75,RU,1567536464,82,59.41,30.35,14.0,2.0
452,Nuuk,90,GL,1567536465,76,64.17,-51.74,12.0,13.9
453,Olesno,0,PL,1567536465,82,50.88,18.42,16.67,1.0
454,Soure,67,BR,1567536465,66,-0.72,-48.52,30.87,4.61
455,Seredka,8,RU,1567536465,81,58.06,38.14,14.67,3.36
456,Xinzhi,92,CN,1567536465,57,36.5,111.7,17.27,1.14
457,Mega,76,ET,1567536465,48,4.06,38.32,24.97,5.57
458,Pombas,75,CV,1567536466,79,17.15,-25.02,29.0,3.1
459,Ostrovnoy,100,RU,1567536278,93,68.05,39.51,13.67,4.09
460,Chililabombwe,54,ZM,1567536466,34,-12.37,27.84,23.67,2.11
461,Hervey Bay,40,AU,1567536466,93,-25.3,152.85,11.67,1.3
462,Farmington,1,US,1567536237,19,36.73,-108.21,31.11,2.32
463,Opuwo,0,NA,1567536230,11,-18.06,13.84,24.77,3.85
464,Hammerfest,0,NO,1567536466,71,70.66,23.68,11.0,5.7
465,Buta,100,CD,1567536466,99,2.79,24.73,21.87,0.9
466,Hami,70,CN,1567536314,32,42.84,93.51,24.57,2.66
467,Sire,50,ET,1567536467,86,8.28,39.49,17.97,3.92
468,Soria,0,ES,1567536467,44,41.76,-2.46,20.56,0.89
469,Mana,40,GF,1567536467,38,5.67,-53.78,35.47,1.16
470,Zalantun,84,CN,1567536467,93,48.0,122.72,15.67,0.73
471,De-Kastri,64,RU,1567536467,94,51.48,140.77,9.67,1.23
472,Fort Nelson,75,CA,1567536318,82,58.81,-122.69,13.0,2.1
473,Chernihiv,33,UA,1567536467,89,51.49,31.29,18.87,4.28
474,Port-Gentil,75,GA,1567536461,78,-0.72,8.78,26.0,5.7
475,Venlo,20,NL,1567536396,72,51.37,6.17,18.33,3.6
476,Poronaysk,81,RU,1567536468,83,49.22,143.1,9.97,1.07
477,Lernakert,6,AM,1567536468,43,40.56,43.94,22.0,2.6
478,Road Town,20,VG,1567536374,66,18.42,-64.62,31.0,5.7
479,Delvada,100,IN,1567536468,95,24.01,72.98,26.07,3.6
480,Portland,0,AU,1567536261,54,-33.35,149.98,11.11,1.33
481,Khash,49,IR,1567536468,15,28.22,61.21,21.97,4.56
482,Nanakuli,75,US,1567536469,65,21.39,-158.15,29.0,4.1
483,Krosno,0,PL,1567536400,93,49.69,21.77,14.0,2.1
484,Emilio Carranza,100,MX,1567536469,49,19.97,-96.61,30.87,4.49
485,Jiuquan,0,CN,1567536469,32,39.73,98.49,21.17,2.31
486,Umm Lajj,4,SA,1567536315,68,25.02,37.27,30.07,4.11
487,Tawau,75,MY,1567536469,94,4.26,117.89,25.0,0.11
488,Luanda,69,AO,1567536469,84,-8.83,13.24,22.37,5.45
489,Morehead,99,PG,1567536261,87,-8.71,141.64,19.67,1.35
490,Solnechnyy,0,RU,1567536470,82,50.72,136.64,10.37,0.97
491,Huntsville,90,CA,1567536184,77,45.33,-79.22,18.0,5.7
492,Motril,40,ES,1567536373,37,36.75,-3.52,28.0,1.12
493,Arkhangelsk,20,RU,1567536470,77,64.54,40.54,19.0,2.0
494,Dembi Dolo,75,ET,1567536470,91,8.53,34.8,20.77,2.22
495,Nago,40,JP,1567536470,83,26.59,127.98,29.0,4.6
496,Rio Bueno,0,CL,1567536470,46,-40.32,-72.97,12.0,4.6
497,Canon City,1,US,1567536470,20,39.46,-117.13,28.0,2.6
498,Panjab,0,AF,1567536471,55,34.38,67.02,4.27,2.83
499,Bambous Virieux,75,MU,1567536471,73,-20.34,57.76,23.0,3.1
500,Gonen,0,TR,1567536471,73,40.1,27.65,25.0,8.7
501,Guadalupe,81,CO,1567536471,63,6.25,-73.42,25.07,2.69
502,Rocha,31,UY,1567536471,53,-34.48,-54.34,10.07,6.12
503,Nome,40,US,1567536471,49,30.04,-94.42,35.0,4.1
504,Ferreira do Alentejo,20,PT,1567536472,21,38.06,-8.11,34.0,7.2
505,Ilhabela,5,BR,1567536241,88,-23.78,-45.36,21.37,4.9
506,Dargaville,97,NZ,1567536472,90,-35.94,173.86,15.17,5.32
507,Klyuchi,81,RU,1567536472,50,52.25,79.17,11.17,2.49
508,Qingyuan,97,CN,1567536472,96,27.62,119.06,19.47,1.48
509,Balkanabat,14,TM,1567536472,53,39.51,54.36,22.27,3.38
510,Kamalpur,75,IN,1567536472,74,28.15,76.61,33.33,1.88
511,Zdvinsk,49,RU,1567536473,86,54.7,78.67,10.27,5.09
512,Lac du Bonnet,100,CA,1567536473,95,50.25,-96.06,13.89,6.03
513,Sohag,0,EG,1567536473,22,26.55,31.7,29.37,4.16
514,Huntington,1,US,1567536329,44,40.87,-73.43,28.89,2.22
515,Andenes,75,NO,1567536473,76,69.31,16.12,10.0,8.2
516,Maniitsoq,100,GL,1567536248,85,65.42,-52.9,7.57,10.04
517,Horsham,0,AU,1567536474,90,-36.71,142.2,4.17,1.46
518,Khandagayty,47,RU,1567536474,79,50.73,92.05,7.37,0.94
519,Yokadouma,97,CM,1567536474,89,3.52,15.05,23.17,0.93
520,Fallon,1,US,1567536474,33,46.84,-105.12,22.78,5.7
521,Praia da Vitoria,75,PT,1567536474,60,38.73,-27.07,24.0,7.66
522,Deputatskiy,0,RU,1567536474,73,69.3,139.9,2.97,1.27
523,Evensk,100,RU,1567536475,72,61.92,159.24,4.77,1.93
524,Palmer,90,US,1567536475,87,61.6,-149.11,13.33,1.36
525,Alekseyevsk,58,RU,1567536475,90,57.84,108.35,7.97,1.17
526,Kungurtug,34,RU,1567536475,89,50.6,97.53,7.27,1.43
527,San Ramon,20,BO,1567536475,47,-13.27,-64.62,35.0,2.1
528,Miri,75,MY,1567536291,94,4.41,114.01,26.0,0.5
529,Dawlatabad,0,AF,1567536475,19,36.41,64.91,22.07,2.98
530,Maceio,40,BR,1567536239,65,-9.67,-35.74,28.0,5.7
531,Lazaro Cardenas,75,MX,1567536475,39,28.39,-105.62,28.0,2.1
532,Sulmona,75,IT,1567536476,64,42.05,13.93,25.0,1.5
533,Yuba City,1,US,1567536408,44,39.14,-121.62,32.78,2.1
534,Sinegorye,3,RU,1567536479,70,62.09,150.53,4.47,1.97
535,Khandbari,100,NP,1567536479,90,27.38,87.21,14.97,1.05
536,Ouegoa,45,NC,1567536479,65,-20.34,164.44,21.37,8.61
537,Ghanzi,0,BW,1567536479,21,-21.7,21.65,19.57,1.95
538,Sainte-Maxime,75,FR,1567536480,65,43.31,6.64,28.0,1.24
539,Constitucion,25,CL,1567536256,40,-35.33,-72.42,15.37,3.02
540,Oistins,40,BB,1567536292,66,13.07,-59.53,31.0,7.2
541,Sibolga,91,ID,1567536276,79,1.74,98.78,27.67,2.3
542,Fort Collins,1,US,1567536480,47,40.55,-105.07,27.22,4.1
